time,mass_kg,weight_n,thrust_cmd,roll_cmd,pitch_cmd,yaw_cmd,max_thrust,max_torque,thrust_fx,thrust_fy,thrust_fz,drag_fx,drag_fy,drag_fz,aero_fx,aero_fy,aero_fz,total_fx,total_fy,total_fz,world_fx,world_fy,world_fz,aero_mx,aero_my,aero_mz,ctrl_mx,ctrl_my,ctrl_mz,total_mx,total_my,total_mz
0.0,0.5,4.905,0.0,0.0,0.0,0.0,100.0,50.0,0.0,0.0,0.0,-7.030319659762085e-10,5.132451130762661e-10,0.03270000219345093,0.2318488508462906,2.377479546566974e-09,0.8402265906333923,0.2318488508462906,2.8907245486209376e-09,0.8729265928268433,0.2318488508462906,2.8779290062175278e-09,0.8729265928268433,-1.8215960295719924e-08,0.050536610186100006,1.8669741308485754e-09,0.0,0.0,0.0,-1.8215960295719924e-08,0.050536610186100006,1.8669741308485754e-09
0.016666666666666666,0.5,4.905,0.0,0.0,0.0,0.0,100.0,50.0,0.0,0.0,0.0,-9.397372923558578e-05,1.578414776304271e-05,0.04887814447283745,0.5144109129905701,0.00010929009295068681,1.873916506767273,0.5143169164657593,0.0001250742352567613,1.9227946996688843,0.5143613815307617,0.00011027740401914343,1.9227827787399292,-0.0015873245429247618,0.11162456125020981,0.00019270763732492924,0.0,0.0,0.0,-0.0015873245429247618,0.11162456125020981,0.00019270763732492924
0.03333333333333333,0.5,4.905,0.0,0.0,0.0,0.0,100.0,50.0,0.0,0.0,0.0,-0.0003042791213374585,5.0245966122020036e-05,0.06484955549240112,0.8964428901672363,0.00046159091289155185,3.2901346683502197,0.896138608455658,0.0005118369008414447,3.3549842834472656,0.896446704864502,0.000411056011216715,3.3549020290374756,-0.006611328572034836,0.19327378273010254,0.0007982192910276353,0.0,0.0,0.0,-0.006611328572034836,0.19327378273010254,0.0007982192910276353
0.05,0.5,4.905,0.0,0.0,0.0,0.0,100.0,50.0,0.0,0.0,0.0,-0.0006765307043679059,0.00010963897511828691,0.0805392861366272,1.364121913909912,0.0012509291991591454,5.057305812835693,1.3634454011917114,0.001360568217933178,5.137845039367676,1.364740252494812,0.0009453214588575065,5.1375017166137695,-0.017572714015841484,0.29158473014831543,0.0021013575606048107,0.0,0.0,0.0,-0.017572714015841484,0.29158473014831543,0.0021013575606048107
0.06666666666666667,0.5,4.905,0.0,0.0,0.0,0.0,100.0,50.0,0.0,0.0,0.0,-0.0012551301624625921,0.00019902265921700746,0.09587901830673218,1.9003289937973022,0.002703390084207058,7.136186599731445,1.899073839187622,0.002902412787079811,7.232065677642822,1.903135061264038,0.0016310292994603515,7.2309980392456055,-0.03705988824367523,0.4017995595932007,0.004373523406684399,0.0,0.0,0.0,-0.03705988824367523,0.4017995595932007,0.004373523406684399
0.08333333333333333,0.5,4.905,0.0,0.0,0.0,0.0,100.0,50.0,0.0,0.0,0.0,-0.0020803490187972784,0.00032135724904946983,0.11080855131149292,2.4857094287872314,0.0050452714785933495,9.481871604919434,2.483628988265991,0.005366628523916006,9.592679977416992,2.4938738346099854,0.0022487014066427946,9.590023040771484,-0.06730607897043228,0.518595278263092,0.007824055850505829,0.0,0.0,0.0,-0.06730607897043228,0.518595278263092,0.007824055850505829
0.09999999999999999,0.5,4.905,0.0,0.0,0.0,0.0,100.0,50.0,0.0,0.0,0.0,-0.003189399605616927,0.0004779679293278605,0.12527690827846527,3.0996053218841553,0.008485137484967709,12.045780181884766,3.0964159965515137,0.008963105268776417,12.171056747436523,3.1186985969543457,0.0023960538674145937,12.165369033813477,-0.10982485115528107,0.6363898515701294,0.012549644336104393,0.0,0.0,0.0,-0.10982485115528107,0.6363898515701294,0.012549644336104393
0.11666666666666665,0.5,4.905,0.0,0.0,0.0,0.0,100.0,50.0,0.0,0.0,0.0,0.040404342114925385,-5.387815326685086e-05,0.11338235437870026,8.52962589263916,-0.0009186755632981658,14.57746696472168,8.570030212402344,-0.0009725537383928895,14.690849304199219,8.501632690429688,-0.016922738403081894,14.7305269241333,0.0133432075381279,3.070011615753174,-0.0026664482429623604,0.0,0.0,0.0,0.0133432075381279,3.070011615753174,-0.0026664482429623604
0.13333333333333333,0.5,4.905,0.0,0.0,0.0,0.0,100.0,50.0,0.0,0.0,0.0,-0.005442902911454439,-0.022241098806262016,-0.003163340035825968,-0.006876412779092789,-0.09801314026117325,-0.10225869715213776,-0.01231931522488594,-0.12025424093008041,-0.10542203485965729,-0.009778534062206745,-0.12025302648544312,-0.10568936914205551,0.5518633127212524,-0.023946020752191544,-0.017821520566940308,0.0,0.0,0.0,0.5518633127212524,-0.023946020752191544,-0.017821520566940308
0.15,0.5,4.905,0.0,0.0,0.0,0.0,100.0,50.0,0.0,0.0,0.0,-0.004456430673599243,-0.004688553977757692,-0.0023965814616531134,0.0,0.0,0.0,-0.004456430673599243,-0.004688553977757692,-0.0023965814616531134,-0.004399001132696867,-0.00469094468280673,-0.002495944732800126,0.0,0.0,0.0,0.0,0.0,0.0,0.0,0.0,0.0
0.16666666666666666,0.5,4.905,0.0,0.0,0.0,0.0,100.0,50.0,0.0,0.0,0.0,-0.002814708976075053,-0.0009941122261807323,0.00034314554068259895,0.0,0.0,0.0,-0.002814708976075053,-0.0009941122261807323,0.00034314554068259895,-0.0028224375564604998,-0.0009935124544426799,0.0002745429228525609,0.0,0.0,0.0,0.0,0.0,0.0,0.0,0.0,0.0
0.18333333333333332,0.5,4.905,0.0,0.0,0.0,0.0,100.0,50.0,0.0,0.0,0.0,-0.0026628333143889904,-0.00034406656050123274,0.000381629157345742,0.0,0.0,0.0,-0.0026628333143889904,-0.00034406656050123274,0.000381629157345742,-0.0026714082341641188,-0.0003434874815866351,0.0003166987153235823,0.0,0.0,0.0,0.0,0.0,0.0,0.0,0.0,0.0
0.19999999999999998,0.5,4.905,0.0,0.0,0.0,0.0,100.0,50.0,0.0,0.0,0.0,-0.0026553163770586252,-0.0003273887268733233,0.0003658575878944248,0.0,0.0,0.0,-0.0026553163770586252,-0.0003273887268733233,0.0003658575878944248,-0.0026635073591023684,-0.0003268000727985054,0.0003011140215676278,0.0,0.0,0.0,0.0,0.0,0.0,0.0,0.0,0.0
0.21666666666666665,0.5,4.905,0.0,0.0,0.0,0.0,100.0,50.0,0.0,0.0,0.0,-0.0026532167103141546,-0.00033085921313613653,0.00036888307658955455,0.0,0.0,0.0,-0.0026532167103141546,-0.00033085921313613653,0.00036888307658955455,-0.002661482896655798,-0.0003302713157609105,0.0003041888994630426,0.0,0.0,0.0,0.0,0.0,0.0,0.0,0.0,0.0
0.2333333333333333,0.5,4.905,0.0,0.0,0.0,0.0,100.0,50.0,0.0,0.0,0.0,-0.0026541142724454403,-0.0003258582146372646,0.00036432454362511635,0.0,0.0,0.0,-0.0026541142724454403,-0.0003258582146372646,0.00036432454362511635,-0.0026622682344168425,-0.00032527008443139493,0.0002996096445713192,0.0,0.0,0.0,0.0,0.0,0.0,0.0,0.0,0.0
0.24999999999999997,0.5,4.905,0.0,0.0,0.0,0.0,100.0,50.0,0.0,0.0,0.0,-0.002652114490047097,-0.000329609087202698,0.00036774700856767595,0.0,0.0,0.0,-0.002652114490047097,-0.000329609087202698,0.00036774700856767595,-0.0026603532023727894,-0.00032902139355428517,0.0003030794905498624,0.0,0.0,0.0,0.0,0.0,0.0,0.0,0.0,0.0
0.26666666666666666,0.5,4.905,0.0,0.0,0.0,0.0,100.0,50.0,0.0,0.0,0.0,-0.0026511535979807377,-0.0003302463155705482,0.0003682922979351133,0.0,0.0,0.0,-0.0026511535979807377,-0.0003302463155705482,0.0003682922979351133,-0.0026594060473144054,-0.0003296587965451181,0.000303647480905056,0.0,0.0,0.0,0.0,0.0,0.0,0.0,0.0,0.0
0.2833333333333333,0.5,4.905,0.0,0.0,0.0,0.0,100.0,50.0,0.0,0.0,0.0,-0.0026511093601584435,-0.00032831382122822106,0.00036660319892689586,0.0,0.0,0.0,-0.0026511093601584435,-0.00032831382122822106,0.00036660319892689586,-0.002659320132806897,-0.0003277258656453341,0.0003019600408151746,0.0,0.0,0.0,0.0,0.0,0.0,0.0,0.0,0.0
0.3,0.5,4.905,0.0,0.0,0.0,0.0,100.0,50.0,0.0,0.0,0.0,-0.002648947760462761,-0.0003326573350932449,0.00037047272780910134,0.0,0.0,0.0,-0.002648947760462761,-0.0003326573350932449,0.00037047272780910134,-0.0026572544593364,-0.0003320701071061194,0.00030588143272325397,0.0,0.0,0.0,0.0,0.0,0.0,0.0,0.0,0.0
0.31666666666666665,0.5,4.905,0.0,0.0,0.0,0.0,100.0,50.0,0.0,0.0,0.0,-0.0027252938598394394,-9.386834426550195e-05,0.0001526365667814389,0.0,0.0,0.0,-0.0027252938598394394,-9.386834426550195e-05,0.0001526365667814389,-0.0027282219380140305,-9.327759471489117e-05,8.62561646499671e-05,0.0,0.0,0.0,0.0,0.0,0.0,0.0,0.0,0.0
0.3333333333333333,0.5,4.905,0.0,0.0,0.0,0.0,100.0,50.0,0.0,0.0,0.0,-0.0027248417027294636,-9.248690184904262e-05,0.0001513738534413278,0.0,0.0,0.0,-0.0027248417027294636,-9.248690184904262e-05,0.0001513738534413278,-0.0027277388144284487,-9.189660340780392e-05,8.500488911522552e-05,0.0,0.0,0.0,0.0,0.0,0.0,0.0,0.0,0.0
0.35,0.5,4.905,0.0,0.0,0.0,0.0,100.0,50.0,0.0,0.0,0.0,-0.0027305963449180126,-7.447181997122243e-05,0.00013391625543590635,0.0,0.0,0.0,-0.0027305963449180126,-7.447181997122243e-05,0.00013391625543590635,-0.0027330629527568817,-7.387774530798197e-05,6.741323886672035e-05,0.0,0.0,0.0,0.0,0.0,0.0,0.0,0.0,0.0
0.36666666666666664,0.5,4.905,0.0,0.0,0.0,0.0,100.0,50.0,0.0,0.0,0.0,-0.0027313889004290104,-6.62196907796897e-05,0.00012991126277484,0.0,0.0,0.0,-0.0027313889004290104,-6.62196907796897e-05,0.00012991126277484,-0.0027337560895830393,-6.562586349900812e-05,6.339025276247412e-05,0.0,0.0,0.0,0.0,0.0,0.0,0.0,0.0,0.0
0.3833333333333333,0.5,4.905,0.0,0.0,0.0,0.0,100.0,50.0,0.0,0.0,0.0,-0.0027316140476614237,-6.44272004137747e-05,0.00012757666991092265,0.0,0.0,0.0,-0.0027316140476614237,-6.44272004137747e-05,0.00012757666991092265,-0.0027339239604771137,-6.383426079992205e-05,6.105021020630375e-05,0.0,0.0,0.0,0.0,0.0,0.0,0.0,0.0,0.0
0.39999999999999997,0.5,4.905,0.0,0.0,0.0,0.0,100.0,50.0,0.0,0.0,0.0,-0.002729014027863741,-7.149605517042801e-05,0.00013205314462538809,0.0,0.0,0.0,-0.002729014027863741,-7.149605517042801e-05,0.00013205314462538809,-0.0027314352337270975,-7.090414874255657e-05,6.558832683367655e-05,0.0,0.0,0.0,0.0,0.0,0.0,0.0,0.0,0.0
0.41666666666666663,0.5,4.905,0.0,0.0,0.0,0.0,100.0,50.0,0.0,0.0,0.0,-0.002729689469560981,-6.615671009058133e-05,0.0001284521131310612,0.0,0.0,0.0,-0.002729689469560981,-6.615671009058133e-05,0.0001284521131310612,-0.002732021501287818,-6.556403241120279e-05,6.19726488366723e-05,0.0,0.0,0.0,0.0,0.0,0.0,0.0,0.0,0.0
0.4333333333333333,0.5,4.905,0.0,0.0,0.0,0.0,100.0,50.0,0.0,0.0,0.0,-0.002728787250816822,-6.540406320709735e-05,0.00012907320342492312,0.0,0.0,0.0,-0.002728787250816822,-6.540406320709735e-05,0.00012907320342492312,-0.0027311344165354967,-6.481193122453988e-05,6.261507951421663e-05,0.0,0.0,0.0,0.0,0.0,0.0,0.0,0.0,0.0
0.44999999999999996,0.5,4.905,0.0,0.0,0.0,0.0,100.0,50.0,0.0,0.0,0.0,-0.002728450810536742,-6.39319623587653e-05,0.00012795688235200942,0.0,0.0,0.0,-0.002728450810536742,-6.39319623587653e-05,0.00012795688235200942,-0.0027307707350701094,-6.33407908026129e-05,6.150810077087954e-05,0.0,0.0,0.0,0.0,0.0,0.0,0.0,0.0,0.0
0.4666666666666666,0.5,4.905,0.0,0.0,0.0,0.0,100.0,50.0,0.0,0.0,0.0,-0.0027437300886958838,-1.8449652998242527e-05,8.36201143101789e-05,0.0,0.0,0.0,-0.0027437300886958838,-1.8449652998242527e-05,8.36201143101789e-05,-0.0027449566405266523,-1.7856582417152822e-05,1.6814181435620412e-05,0.0,0.0,0.0,0.0,0.0,0.0,0.0,0.0,0.0
0.4833333333333333,0.5,4.905,0.0,0.0,0.0,0.0,100.0,50.0,0.0,0.0,0.0,-0.00274269818328321,-1.9342314772075042e-05,8.441056706942618e-05,0.0,0.0,0.0,-0.00274269818328321,-1.9342314772075042e-05,8.441056706942618e-05,-0.0027439442928880453,-1.8749802620732225e-05,1.762961437634658e-05,0.0,0.0,0.0,0.0,0.0,0.0,0.0,0.0,0.0
0.49999999999999994,0.5,4.905,0.0,0.0,0.0,0.0,100.0,50.0,0.0,0.0,0.0,-0.0027428960893303156,-1.7061085600289516e-05,8.229595550801605e-05,0.0,0.0,0.0,-0.0027428960893303156,-1.7061085600289516e-05,8.229595550801605e-05,-0.0027440902777016163,-1.6467907698825002e-05,1.551044624648057e-05,0.0,0.0,0.0,0.0,0.0,0.0,0.0,0.0,0.0
0.5166666666666666,0.5,4.905,0.0,0.0,0.0,0.0,100.0,50.0,0.0,0.0,0.0,-0.0027416383381932974,-1.8648568584467284e-05,8.374236495001242e-05,0.0,0.0,0.0,-0.0027416383381932974,-1.8648568584467284e-05,8.374236495001242e-05,-0.002742868149653077,-1.805555439204909e-05,1.6987891285680234e-05,0.0,0.0,0.0,0.0,0.0,0.0,0.0,0.0,0.0
0.5333333333333333,0.5,4.905,0.0,0.0,0.0,0.0,100.0,50.0,0.0,0.0,0.0,-0.0027400958351790905,-2.1133493646630086e-05,8.591961523052305e-05,0.0,0.0,0.0,-0.0027400958351790905,-2.1133493646630086e-05,8.591961523052305e-05,-0.0027413798961788416,-2.0541008780128323e-05,1.9200737369828857e-05,0.0,0.0,0.0,0.0,0.0,0.0,0.0,0.0,0.0
0.55,0.5,4.905,0.0,0.0,0.0,0.0,100.0,50.0,0.0,0.0,0.0,-0.002739914460107684,-1.9670604160637595e-05,8.454445924144238e-05,0.0,0.0,0.0,-0.002739914460107684,-1.9670604160637595e-05,8.454445924144238e-05,-0.0027411645278334618,-1.9077860997640528e-05,1.7831151126301847e-05,0.0,0.0,0.0,0.0,0.0,0.0,0.0,0.0,0.0
0.5666666666666668,0.5,4.905,0.0,0.0,0.0,0.0,100.0,50.0,0.0,0.0,0.0,-0.0027389510069042444,-1.9980701836175285e-05,8.477721712552011e-05,0.0,0.0,0.0,-0.0027389510069042444,-1.9980701836175285e-05,8.477721712552011e-05,-0.0027402073610574007,-1.9387884094612673e-05,1.8086684576701373e-05,0.0,0.0,0.0,0.0,0.0,0.0,0.0,0.0,0.0
0.5833333333333335,0.5,4.905,0.0,0.0,0.0,0.0,100.0,50.0,0.0,0.0,0.0,-0.00273875636048615,-1.8784588974085636e-05,8.374387107323855e-05,0.0,0.0,0.0,-0.00273875636048615,-1.8784588974085636e-05,8.374387107323855e-05,-0.002739987336099148,-1.8191634808317758e-05,1.7059002857422456e-05,0.0,0.0,0.0,0.0,0.0,0.0,0.0,0.0,0.0
0.6000000000000002,0.5,4.905,0.0,0.0,0.0,0.0,100.0,50.0,0.0,0.0,0.0,-0.002737239236012101,-2.1099394871271215e-05,8.585616160416976e-05,0.0,0.0,0.0,-0.002737239236012101,-2.1099394871271215e-05,8.585616160416976e-05,-0.0027385225985199213,-2.0506920918705873e-05,1.9206676370231435e-05,0.0,0.0,0.0,0.0,0.0,0.0,0.0,0.0,0.0
0.6166666666666669,0.5,4.905,0.0,0.0,0.0,0.0,100.0,50.0,0.0,0.0,0.0,-0.0027430038899183273,-1.1649543694147724e-06,6.805813609389588e-05,0.0,0.0,0.0,-0.0027430038899183273,-1.1649543694147724e-06,6.805813609389588e-05,-0.0027438481338322163,-5.727817438128113e-07,1.2753607734339312e-06,0.0,0.0,0.0,0.0,0.0,0.0,0.0,0.0,0.0
0.6333333333333336,0.5,4.905,0.0,0.0,0.0,0.0,100.0,50.0,0.0,0.0,0.0,-0.002740544034168124,-6.639178081968566e-06,7.283582090167329e-05,0.0,0.0,0.0,-0.002740544034168124,-6.639178081968566e-06,7.283582090167329e-05,-0.0027415063232183456,-6.046185717423214e-06,6.1113541960367e-06,0.0,0.0,0.0,0.0,0.0,0.0,0.0,0.0,0.0
0.6500000000000004,0.5,4.905,0.0,0.0,0.0,0.0,100.0,50.0,0.0,0.0,0.0,-0.00274059921503067,-4.5309025153983384e-06,7.107705459930003e-05,0.0,0.0,0.0,-0.00274059921503067,-4.5309025153983384e-06,7.107705459930003e-05,-0.002741518197581172,-3.938262125302572e-06,4.3515278775885236e-06,0.0,0.0,0.0,0.0,0.0,0.0,0.0,0.0,0.0
0.6666666666666671,0.5,4.905,0.0,0.0,0.0,0.0,100.0,50.0,0.0,0.0,0.0,-0.0027397305238991976,-5.231929662841139e-06,7.150167220970616e-05,0.0,0.0,0.0,-0.0027397305238991976,-5.231929662841139e-06,7.150167220970616e-05,-0.0027406602166593075,-4.640545739675872e-06,4.796748726221267e-06,0.0,0.0,0.0,0.0,0.0,0.0,0.0,0.0,0.0
0.6833333333333338,0.5,4.905,0.0,0.0,0.0,0.0,100.0,50.0,0.0,0.0,0.0,-0.0027388683520257473,-5.869510914635612e-06,7.213066419353709e-05,0.0,0.0,0.0,-0.0027388683520257473,-5.869510914635612e-06,7.213066419353709e-05,-0.0027398138772696257,-5.278982371237362e-06,5.446040631795768e-06,0.0,0.0,0.0,0.0,0.0,0.0,0.0,0.0,0.0
0.7000000000000005,0.5,4.905,0.0,0.0,0.0,0.0,100.0,50.0,0.0,0.0,0.0,-0.0027380099054425955,-6.424581897590542e-06,7.249683403642848e-05,0.0,0.0,0.0,-0.0027380099054425955,-6.424581897590542e-06,7.249683403642848e-05,-0.00273896474391222,-5.83330302106333e-06,5.832732767885318e-06,0.0,0.0,0.0,0.0,0.0,0.0,0.0,0.0,0.0
0.7166666666666672,0.5,4.905,0.0,0.0,0.0,0.0,100.0,50.0,0.0,0.0,0.0,-0.0027372974436730146,-6.2106128098093905e-06,7.2338072641287e-05,0.0,0.0,0.0,-0.0027372974436730146,-6.2106128098093905e-06,7.2338072641287e-05,-0.0027382485568523407,-5.619622697849991e-06,5.692736067430815e-06,0.0,0.0,0.0,0.0,0.0,0.0,0.0,0.0,0.0
0.733333333333334,0.5,4.905,0.0,0.0,0.0,0.0,100.0,50.0,0.0,0.0,0.0,-0.00273713911883533,-4.479961262404686e-06,7.072515290929005e-05,0.0,0.0,0.0,-0.00273713911883533,-4.479961262404686e-06,7.072515290929005e-05,-0.002738050650805235,-3.888771971105598e-06,4.083615749550518e-06,0.0,0.0,0.0,0.0,0.0,0.0,0.0,0.0,0.0
0.7500000000000007,0.5,4.905,0.0,0.0,0.0,0.0,100.0,50.0,0.0,0.0,0.0,-0.0027368648443371058,-2.7815717658086214e-06,6.928887887625024e-05,0.0,0.0,0.0,-0.0027368648443371058,-2.7815717658086214e-06,6.928887887625024e-05,-0.0027377409860491753,-2.189719907619292e-06,2.65447260971996e-06,0.0,0.0,0.0,0.0,0.0,0.0,0.0,0.0,0.0
0.7666666666666674,0.5,4.905,0.0,0.0,0.0,0.0,100.0,50.0,0.0,0.0,0.0,-0.002736941911280155,-7.927902743176674e-07,6.743588164681569e-05,0.0,0.0,0.0,-0.002736941911280155,-7.927902743176674e-07,6.743588164681569e-05,-0.0027377724181860685,-2.0286721280626807e-07,8.000324100976286e-07,0.0,0.0,0.0,0.0,0.0,0.0,0.0,0.0,0.0
0.7833333333333341,0.5,4.905,0.0,0.0,0.0,0.0,100.0,50.0,0.0,0.0,0.0,-0.002736481372267008,8.024686692920113e-09,6.662456871708855e-05,0.0,0.0,0.0,-0.002736481372267008,8.024686692920113e-09,6.662456871708855e-05,-0.0027372923213988543,5.991290663587279e-07,1.2361809353933495e-09,0.0,0.0,0.0,0.0,0.0,0.0,0.0,0.0,0.0
0.8000000000000008,0.5,4.905,0.0,0.0,0.0,0.0,100.0,50.0,0.0,0.0,0.0,-0.002735877176746726,7.64718066648129e-08,6.673676398349926e-05,0.0,0.0,0.0,-0.002735877176746726,7.64718066648129e-08,6.673676398349926e-05,-0.0027366909198462963,6.681488571302907e-07,1.278398968906913e-07,0.0,0.0,0.0,0.0,0.0,0.0,0.0,0.0,0.0
0.8166666666666675,0.5,4.905,0.0,0.0,0.0,0.0,100.0,50.0,0.0,0.0,0.0,-0.002735273679718375,3.9710354116095914e-08,6.66529085719958e-05,0.0,0.0,0.0,-0.002735273679718375,3.9710354116095914e-08,6.66529085719958e-05,-0.0027360855601727962,6.318896907941962e-07,5.835281768895584e-08,0.0,0.0,0.0,0.0,0.0,0.0,0.0,0.0,0.0
0.8333333333333343,0.5,4.905,0.0,0.0,0.0,0.0,100.0,50.0,0.0,0.0,0.0,-0.0027345919515937567,2.2068054050805586e-08,6.658823258476332e-05,0.0,0.0,0.0,-0.0027345919515937567,2.2068054050805586e-08,6.658823258476332e-05,-0.002735402435064316,6.126033440523315e-07,1.025794560405302e-08,0.0,0.0,0.0,0.0,0.0,0.0,0.0,0.0,0.0
0.850000000000001,0.5,4.905,0.0,0.0,0.0,0.0,100.0,50.0,0.0,0.0,0.0,-0.002733847126364708,3.7077168002497274e-08,6.656697223661467e-05,0.0,0.0,0.0,-0.002733847126364708,3.7077168002497274e-08,6.656697223661467e-05,-0.0027346573770046234,6.281078412939678e-07,6.712005173881153e-09,0.0,0.0,0.0,0.0,0.0,0.0,0.0,0.0,0.0
0.8666666666666677,0.5,4.905,0.0,0.0,0.0,0.0,100.0,50.0,0.0,0.0,0.0,-0.002733120694756508,6.362586901786926e-08,6.656756158918142e-05,0.0,0.0,0.0,-0.002733120694756508,6.362586901786926e-08,6.656756158918142e-05,-0.002733931178227067,6.541325774378492e-07,2.4987862445868814e-08,0.0,0.0,0.0,0.0,0.0,0.0,0.0,0.0,0.0
0.8833333333333344,0.5,4.905,0.0,0.0,0.0,0.0,100.0,50.0,0.0,0.0,0.0,-0.002732361201196909,1.0307268638598543e-07,6.656106415903196e-05,0.0,0.0,0.0,-0.002732361201196909,1.0307268638598543e-07,6.656106415903196e-05,-0.002733171684667468,6.945826385162945e-07,3.732881026508039e-08,0.0,0.0,0.0,0.0,0.0,0.0,0.0,0.0,0.0
0.9000000000000011,0.5,4.905,0.0,0.0,0.0,0.0,100.0,50.0,0.0,0.0,0.0,-0.0027316014748066664,5.093090749141993e-08,6.652647425653413e-05,0.0,0.0,0.0,-0.0027316014748066664,5.093090749141993e-08,6.652647425653413e-05,-0.0027324112597852945,6.417448616957699e-07,2.0624309371441996e-08,0.0,0.0,0.0,0.0,0.0,0.0,0.0,0.0,0.0
0.9166666666666679,0.5,4.905,0.0,0.0,0.0,0.0,100.0,50.0,0.0,0.0,0.0,-0.0027309933211654425,7.599162188398623e-08,6.650977593380958e-05,0.0,0.0,0.0,-0.0027309933211654425,7.599162188398623e-08,6.650977593380958e-05,-0.0027318031061440706,6.658819984295405e-07,1.9723076505329118e-08,0.0,0.0,0.0,0.0,0.0,0.0,0.0,0.0,0.0
0.9333333333333346,0.5,4.905,0.0,0.0,0.0,0.0,100.0,50.0,0.0,0.0,0.0,-0.0027302473317831755,7.913456556707388e-08,6.649328133789822e-05,0.0,0.0,0.0,-0.0027302473317831755,7.913456556707388e-08,6.649328133789822e-05,-0.00273105688393116,6.689274414384272e-07,2.0369837372413713e-08,0.0,0.0,0.0,0.0,0.0,0.0,0.0,0.0,0.0
0.9500000000000013,0.5,4.905,0.0,0.0,0.0,0.0,100.0,50.0,0.0,0.0,0.0,-0.0027287877164781094,-2.9607663236674853e-06,6.924734771018848e-05,0.0,0.0,0.0,-0.0027287877164781094,-2.9607663236674853e-06,6.924734771018848e-05,-0.0027296654880046844,-2.371736627537757e-06,2.8090219075238565e-06,0.0,0.0,0.0,0.0,0.0,0.0,0.0,0.0,0.0
0.966666666666668,0.5,4.905,0.0,0.0,0.0,0.0,100.0,50.0,0.0,0.0,0.0,-0.002727036364376545,-6.36643335383269e-06,7.218789687613025e-05,0.0,0.0,0.0,-0.002727036364376545,-6.36643335383269e-06,7.218789687613025e-05,-0.00272798677906394,-5.776930265710689e-06,5.790633167634951e-06,0.0,0.0,0.0,0.0,0.0,0.0,0.0,0.0,0.0
0.9833333333333347,0.5,4.905,0.0,0.0,0.0,0.0,100.0,50.0,0.0,0.0,0.0,-0.002727596089243889,-2.4448286239930894e-06,6.863894668640569e-05,0.0,0.0,0.0,-0.002727596089243889,-2.4448286239930894e-06,6.863894668640569e-05,-0.0027284591924399137,-1.8563735011412064e-06,2.229798838015995e-06,0.0,0.0,0.0,0.0,0.0,0.0,0.0,0.0,0.0
1.0000000000000013,0.5,4.905,0.0,0.0,0.0,0.0,100.0,50.0,0.0,0.0,0.0,-0.0027270156424492598,-1.7894856227940181e-06,6.813400977989659e-05,0.0,0.0,0.0,-0.0027270156424492598,-1.7894856227940181e-06,6.813400977989659e-05,-0.002727866405621171,-1.2003364417978446e-06,1.7386432773491833e-06,0.0,0.0,0.0,0.0,0.0,0.0,0.0,0.0,0.0
1.016666666666668,0.5,4.905,0.0,0.0,0.0,0.0,100.0,50.0,0.0,0.0,0.0,-0.002725273836404085,-5.067913207312813e-06,7.097365596564487e-05,0.0,0.0,0.0,-0.002725273836404085,-5.067913207312813e-06,7.097365596564487e-05,-0.00272619491443038,-4.480019015318248e-06,4.620466825144831e-06,0.0,0.0,0.0,0.0,0.0,0.0,0.0,0.0,0.0
1.0333333333333345,0.5,4.905,0.0,0.0,0.0,0.0,100.0,50.0,0.0,0.0,0.0,-0.0027245746459811926,-4.711114797828486e-06,7.07224608049728e-05,0.0,0.0,0.0,-0.0027245746459811926,-4.711114797828486e-06,7.07224608049728e-05,-0.002725489903241396,-4.122755399293965e-06,4.385959528008243e-06,0.0,0.0,0.0,0.0,0.0,0.0,0.0,0.0,0.0
1.0500000000000012,0.5,4.905,0.0,0.0,0.0,0.0,100.0,50.0,0.0,0.0,0.0,-0.00272531621158123,-4.321407232055208e-08,6.650021532550454e-05,0.0,0.0,0.0,-0.00272531621158123,-4.321407232055208e-08,6.650021532550454e-05,-0.0027261273935437202,5.449232958198991e-07,1.4714230189838418e-07,0.0,0.0,0.0,0.0,0.0,0.0,0.0,0.0,0.0
1.0666666666666678,0.5,4.905,0.0,0.0,0.0,0.0,100.0,50.0,0.0,0.0,0.0,-0.0027241078205406666,-1.9897161109838635e-06,6.826115713920444e-05,0.0,0.0,0.0,-0.0027241078205406666,-1.9897161109838635e-06,6.826115713920444e-05,-0.0027249627746641636,-1.4013879763297155e-06,1.938689820235595e-06,0.0,0.0,0.0,0.0,0.0,0.0,0.0,0.0,0.0
1.0833333333333344,0.5,4.905,0.0,0.0,0.0,0.0,100.0,50.0,0.0,0.0,0.0,-0.0027232186403125525,-2.6583022645354504e-06,6.887632480356842e-05,0.0,0.0,0.0,-0.0027232186403125525,-2.6583022645354504e-06,6.887632480356842e-05,-0.002724088728427887,-2.070304617518559e-06,2.5753072350198636e-06,0.0,0.0,0.0,0.0,0.0,0.0,0.0,0.0,0.0
1.100000000000001,0.5,4.905,0.0,0.0,0.0,0.0,100.0,50.0,0.0,0.0,0.0,-0.002723031211644411,-1.6591287703704438e-06,6.785542063880712e-05,0.0,0.0,0.0,-0.002723031211644411,-1.6591287703704438e-06,6.785542063880712e-05,-0.0027238763868808746,-1.0718490557337645e-06,1.5578826833007042e-06,0.0,0.0,0.0,0.0,0.0,0.0,0.0,0.0,0.0
1.1166666666666676,0.5,4.905,0.0,0.0,0.0,0.0,100.0,50.0,0.0,0.0,0.0,-0.002722654026001692,-6.59618876852619e-07,6.694614421576262e-05,0.0,0.0,0.0,-0.002722654026001692,-6.59618876852619e-07,6.694614421576262e-05,-0.0027234768494963646,-7.177153804605041e-08,6.574808821824263e-07,0.0,0.0,0.0,0.0,0.0,0.0,0.0,0.0,0.0
1.1333333333333342,0.5,4.905,0.0,0.0,0.0,0.0,100.0,50.0,0.0,0.0,0.0,-0.0027213748544454575,-2.4547780412831344e-06,6.846589531050995e-05,0.0,0.0,0.0,-0.0027213748544454575,-2.4547780412831344e-06,6.846589531050995e-05,-0.002722235396504402,-1.867102241703833e-06,2.2092851850175066e-06,0.0,0.0,0.0,0.0,0.0,0.0,0.0,0.0,0.0
1.1500000000000008,0.5,4.905,0.0,0.0,0.0,0.0,100.0,50.0,0.0,0.0,0.0,-0.0027202412020415068,-3.517218374327058e-06,6.958199810469523e-05,0.0,0.0,0.0,-0.0027202412020415068,-3.517218374327058e-06,6.958199810469523e-05,-0.00272112968377769,-2.9306399937922833e-06,3.351769237269764e-06,0.0,0.0,0.0,0.0,0.0,0.0,0.0,0.0,0.0
1.1666666666666674,0.5,4.905,0.0,0.0,0.0,0.0,100.0,50.0,0.0,0.0,0.0,-0.002720210701227188,-1.3102417142363265e-06,6.756179936928675e-05,0.0,0.0,0.0,-0.002720210701227188,-1.3102417142363265e-06,6.756179936928675e-05,-0.002721049590036273,-7.226372531476954e-07,1.333866407549067e-06,0.0,0.0,0.0,0.0,0.0,0.0,0.0,0.0,0.0
1.183333333333334,0.5,4.905,0.0,0.0,0.0,0.0,100.0,50.0,0.0,0.0,0.0,-0.002719382755458355,-1.6628499679427478e-06,6.775632209610194e-05,0.0,0.0,0.0,-0.002719382755458355,-1.6628499679427478e-06,6.775632209610194e-05,-0.0027202267665416002,-1.076367652785848e-06,1.54758095050056e-06,0.0,0.0,0.0,0.0,0.0,0.0,0.0,0.0,0.0
1.2000000000000006,0.5,4.905,0.0,0.0,0.0,0.0,100.0,50.0,0.0,0.0,0.0,-0.002718540607020259,-1.7883043028632528e-06,6.792731437599286e-05,0.0,0.0,0.0,-0.002718540607020259,-1.7883043028632528e-06,6.792731437599286e-05,-0.0027193890418857336,-1.2004323934888816e-06,1.73942135006655e-06,0.0,0.0,0.0,0.0,0.0,0.0,0.0,0.0,0.0
1.2166666666666672,0.5,4.905,0.0,0.0,0.0,0.0,100.0,50.0,0.0,0.0,0.0,-0.002718149684369564,-1.5803301494088373e-06,6.767631566617638e-05,0.0,0.0,0.0,-0.002718149684369564,-1.5803301494088373e-06,6.767631566617638e-05,-0.00271899183280766,-9.925006452249363e-07,1.4968087498345994e-06,0.0,0.0,0.0,0.0,0.0,0.0,0.0,0.0,0.0
1.2333333333333338,0.5,4.905,0.0,0.0,0.0,0.0,100.0,50.0,0.0,0.0,0.0,-0.002717900089919567,-5.433425442902262e-08,6.629964627791196e-05,0.0,0.0,0.0,-0.002717900089919567,-5.433425442902262e-08,6.629964627791196e-05,-0.0027187084779143333,5.324153562469292e-07,1.2732904508538923e-07,0.0,0.0,0.0,0.0,0.0,0.0,0.0,0.0,0.0
1.2500000000000004,0.5,4.905,0.0,0.0,0.0,0.0,100.0,50.0,0.0,0.0,0.0,-0.002716663759201765,-2.2786362023907714e-06,6.81974706822075e-05,0.0,0.0,0.0,-0.002716663759201765,-2.2786362023907714e-06,6.81974706822075e-05,-0.0027175191789865494,-1.6903668438317254e-06,2.0552984096866567e-06,0.0,0.0,0.0,0.0,0.0,0.0,0.0,0.0,0.0
1.266666666666667,0.5,4.905,0.0,0.0,0.0,0.0,100.0,50.0,0.0,0.0,0.0,-0.0027166830841451883,2.5835660721895692e-08,6.614343874389306e-05,0.0,0.0,0.0,-0.0027166830841451883,2.5835660721895692e-08,6.614343874389306e-05,-0.0027174879796802998,6.121176738815848e-07,1.113757974735563e-09,0.0,0.0,0.0,0.0,0.0,0.0,0.0,0.0,0.0
1.2833333333333337,0.5,4.905,0.0,0.0,0.0,0.0,100.0,50.0,0.0,0.0,0.0,-0.0027158723678439856,-1.2890568257262203e-07,6.640383799094707e-05,0.0,0.0,0.0,-0.0027158723678439856,-1.2890568257262203e-07,6.640383799094707e-05,-0.002716684015467763,4.588174817854451e-07,2.8150455477771175e-07,0.0,0.0,0.0,0.0,0.0,0.0,0.0,0.0,0.0
1.3000000000000003,0.5,4.905,0.0,0.0,0.0,0.0,100.0,50.0,0.0,0.0,0.0,-0.002715229755267501,3.350002586444134e-08,6.611545541090891e-05,0.0,0.0,0.0,-0.002715229755267501,3.350002586444134e-08,6.611545541090891e-05,-0.0027160346508026123,6.198881123964384e-07,7.965860859826535e-09,0.0,0.0,0.0,0.0,0.0,0.0,0.0,0.0,0.0
1.3166666666666669,0.5,4.905,0.0,0.0,0.0,0.0,100.0,50.0,0.0,0.0,0.0,-0.0027135831769555807,-2.867573812181945e-06,6.865339673822746e-05,0.0,0.0,0.0,-0.0027135831769555807,-2.867573812181945e-06,6.865339673822746e-05,-0.0027144509367644787,-2.2808160338172456e-06,2.585762786111445e-06,0.0,0.0,0.0,0.0,0.0,0.0,0.0,0.0,0.0
1.3333333333333335,0.5,4.905,0.0,0.0,0.0,0.0,100.0,50.0,0.0,0.0,0.0,-0.002713689813390374,-1.0795739768809653e-07,6.617843610001728e-05,0.0,0.0,0.0,-0.002713689813390374,-1.0795739768809653e-07,6.617843610001728e-05,-0.002714496571570635,4.78584638585744e-07,1.1001196753568365e-07,0.0,0.0,0.0,0.0,0.0,0.0,0.0,0.0,0.0
1.35,0.5,4.905,0.0,0.0,0.0,0.0,100.0,50.0,0.0,0.0,0.0,-0.0027130483649671078,1.0372832370819651e-08,6.606027454836294e-05,0.0,0.0,0.0,-0.0027130483649671078,1.0372832370819651e-08,6.606027454836294e-05,-0.0027138525620102882,5.969751555312541e-07,7.1638623921899125e-09,0.0,0.0,0.0,0.0,0.0,0.0,0.0,0.0,0.0
1.3666666666666667,0.5,4.905,0.0,0.0,0.0,0.0,100.0,50.0,0.0,0.0,0.0,-0.0027112045791000128,-3.868492058245465e-06,6.957444566069171e-05,0.0,0.0,0.0,-0.0027112045791000128,-3.868492058245465e-06,6.957444566069171e-05,-0.002712095621973276,-3.2826067126734415e-06,3.56416830982198e-06,0.0,0.0,0.0,0.0,0.0,0.0,0.0,0.0,0.0
1.3833333333333333,0.5,4.905,0.0,0.0,0.0,0.0,100.0,50.0,0.0,0.0,0.0,-0.0027100620791316032,-5.172519649931928e-06,7.070865103742108e-05,0.0,0.0,0.0,-0.0027100620791316032,-5.172519649931928e-06,7.070865103742108e-05,-0.0027109812945127487,-4.586895556712989e-06,4.725935468741227e-06,0.0,0.0,0.0,0.0,0.0,0.0,0.0,0.0,0.0
1.4,0.5,4.905,0.0,0.0,0.0,0.0,100.0,50.0,0.0,0.0,0.0,-0.002709756838157773,-4.500122031458886e-06,7.00728633091785e-05,0.0,0.0,0.0,-0.002709756838157773,-4.500122031458886e-06,7.00728633091785e-05,-0.0027106604538857937,-3.914803073712392e-06,4.097882538189879e-06,0.0,0.0,0.0,0.0,0.0,0.0,0.0,0.0,0.0
1.4166666666666665,0.5,4.905,0.0,0.0,0.0,0.0,100.0,50.0,0.0,0.0,0.0,-0.002709203166887164,-3.851257133646868e-06,6.956702418392524e-05,0.0,0.0,0.0,-0.002709203166887164,-3.851257133646868e-06,6.956702418392524e-05,-0.0027100946754217148,-3.265320174250519e-06,3.6054289012099616e-06,0.0,0.0,0.0,0.0,0.0,0.0,0.0,0.0,0.0
1.4333333333333331,0.5,4.905,0.0,0.0,0.0,0.0,100.0,50.0,0.0,0.0,0.0,-0.0027075745165348053,-6.831065093138022e-06,7.214670040411875e-05,0.0,0.0,0.0,-0.0027075745165348053,-6.831065093138022e-06,7.214670040411875e-05,-0.002708529820665717,-6.2471490309690125e-06,6.224187927728053e-06,0.0,0.0,0.0,0.0,0.0,0.0,0.0,0.0,0.0
1.4499999999999997,0.5,4.905,0.0,0.0,0.0,0.0,100.0,50.0,0.0,0.0,0.0,-0.0027075675316154957,-4.429133696248755e-06,7.004848157521337e-05,0.0,0.0,0.0,-0.0027075675316154957,-4.429133696248755e-06,7.004848157521337e-05,-0.00270847138017416,-3.844636466965312e-06,4.126003659621347e-06,0.0,0.0,0.0,0.0,0.0,0.0,0.0,0.0,0.0
1.4666666666666663,0.5,4.905,0.0,0.0,0.0,0.0,100.0,50.0,0.0,0.0,0.0,-0.0027070685755461454,-3.7150887237658026e-06,6.929264782229438e-05,0.0,0.0,0.0,-0.0027070685755461454,-3.7150887237658026e-06,6.929264782229438e-05,-0.0027079537976533175,-3.1308063626056537e-06,3.3827388961071847e-06,0.0,0.0,0.0,0.0,0.0,0.0,0.0,0.0,0.0
1.483333333333333,0.5,4.905,0.0,0.0,0.0,0.0,100.0,50.0,0.0,0.0,0.0,-0.002706445986405015,-3.536366875778185e-06,6.91977547830902e-05,0.0,0.0,0.0,-0.002706445986405015,-3.536366875778185e-06,6.91977547830902e-05,-0.002707329113036394,-2.95323548016313e-06,3.3033525141945574e-06,0.0,0.0,0.0,0.0,0.0,0.0,0.0,0.0,0.0
1.4999999999999996,0.5,4.905,0.0,0.0,0.0,0.0,100.0,50.0,0.0,0.0,0.0,-0.002705223625525832,-5.185680493013933e-06,7.058041956042871e-05,0.0,0.0,0.0,-0.002705223625525832,-5.185680493013933e-06,7.058041956042871e-05,-0.002706141211092472,-4.602991793944966e-06,4.715498107543681e-06,0.0,0.0,0.0,0.0,0.0,0.0,0.0,0.0,0.0
1.5166666666666662,0.5,4.905,0.0,0.0,0.0,0.0,100.0,50.0,0.0,0.0,0.0,-0.002706280443817377,1.212050477761295e-07,6.595798913622275e-05,0.0,0.0,0.0,-0.002706280443817377,1.212050477761295e-07,6.595798913622275e-05,-0.0027070839423686266,7.049418968563259e-07,6.918430983660073e-08,0.0,0.0,0.0,0.0,0.0,0.0,0.0,0.0,0.0
1.5333333333333328,0.5,4.905,0.0,0.0,0.0,0.0,100.0,50.0,0.0,0.0,0.0,-0.002705564722418785,2.3652733105450352e-08,6.587295501958579e-05,0.0,0.0,0.0,-0.002705564722418785,2.3652733105450352e-08,6.587295501958579e-05,-0.0027063663583248854,6.073636882319988e-07,7.257838774421543e-10,0.0,0.0,0.0,0.0,0.0,0.0,0.0,0.0,0.0
1.5499999999999994,0.5,4.905,0.0,0.0,0.0,0.0,100.0,50.0,0.0,0.0,0.0,-0.002704649232327938,-1.1594760280786431e-06,6.691693124594167e-05,0.0,0.0,0.0,-0.002704649232327938,-1.1594760280786431e-06,6.691693124594167e-05,-0.002705476712435484,-5.768494020230719e-07,1.0672273447198677e-06,0.0,0.0,0.0,0.0,0.0,0.0,0.0,0.0,0.0
1.566666666666666,0.5,4.905,0.0,0.0,0.0,0.0,100.0,50.0,0.0,0.0,0.0,-0.0027032201178371906,-3.2833163459145e-06,6.886127812322229e-05,0.0,0.0,0.0,-0.0027032201178371906,-3.2833163459145e-06,6.886127812322229e-05,-0.0027040960267186165,-2.7006096843251726e-06,3.0459950721706264e-06,0.0,0.0,0.0,0.0,0.0,0.0,0.0,0.0,0.0
1.5833333333333326,0.5,4.905,0.0,0.0,0.0,0.0,100.0,50.0,0.0,0.0,0.0,-0.0027035886887460947,1.6993078588711796e-07,6.588892574654892e-05,0.0,0.0,0.0,-0.0027035886887460947,1.6993078588711796e-07,6.588892574654892e-05,-0.0027043914888054132,7.540550086559961e-07,6.664293294988965e-08,0.0,0.0,0.0,0.0,0.0,0.0,0.0,0.0,0.0
1.5999999999999992,0.5,4.905,0.0,0.0,0.0,0.0,100.0,50.0,0.0,0.0,0.0,-0.002702810103073716,1.0089612345609567e-07,6.58783974358812e-05,0.0,0.0,0.0,-0.002702810103073716,1.0089612345609567e-07,6.58783974358812e-05,-0.0027036129031330347,6.8423202037593e-07,7.471717111684484e-08,0.0,0.0,0.0,0.0,0.0,0.0,0.0,0.0,0.0
1.6166666666666658,0.5,4.905,0.0,0.0,0.0,0.0,100.0,50.0,0.0,0.0,0.0,-0.0027021898422390223,8.390737882280064e-09,6.580061017302796e-05,0.0,0.0,0.0,-0.0027021898422390223,8.390737882280064e-09,6.580061017302796e-05,-0.0027029910124838352,5.915835004088876e-07,1.2020128892231696e-08,0.0,0.0,0.0,0.0,0.0,0.0,0.0,0.0,0.0
1.6333333333333324,0.5,4.905,0.0,0.0,0.0,0.0,100.0,50.0,0.0,0.0,0.0,-0.002701437333598733,5.460299234982813e-08,6.579050386790186e-05,0.0,0.0,0.0,-0.002701437333598733,5.460299234982813e-08,6.579050386790186e-05,-0.0027022382710129023,6.373279575200286e-07,2.056730963317932e-08,0.0,0.0,0.0,0.0,0.0,0.0,0.0,0.0,0.0
1.649999999999999,0.5,4.905,0.0,0.0,0.0,0.0,100.0,50.0,0.0,0.0,0.0,-0.0027006915770471096,2.9033669690647912e-08,6.575865700142458e-05,0.0,0.0,0.0,-0.0027006915770471096,2.9033669690647912e-08,6.575865700142458e-05,-0.002701491815969348,6.116566737546236e-07,5.8884950249193935e-09,0.0,0.0,0.0,0.0,0.0,0.0,0.0,0.0,0.0
1.6666666666666656,0.5,4.905,0.0,0.0,0.0,0.0,100.0,50.0,0.0,0.0,0.0,-0.002700116252526641,3.509390822387104e-08,6.574406143045053e-05,0.0,0.0,0.0,-0.002700116252526641,3.509390822387104e-08,6.574406143045053e-05,-0.0027009164914488792,6.176022679937887e-07,5.557142301881868e-09,0.0,0.0,0.0,0.0,0.0,0.0,0.0,0.0,0.0
1.6833333333333322,0.5,4.905,0.0,0.0,0.0,0.0,100.0,50.0,0.0,0.0,0.0,-0.0026993867941200733,1.6926148305174138e-07,6.578258035006002e-05,0.0,0.0,0.0,-0.0026993867941200733,1.6926148305174138e-07,6.578258035006002e-05,-0.00270018819719553,7.522860414610477e-07,6.204310665225421e-08,0.0,0.0,0.0,0.0,0.0,0.0,0.0,0.0,0.0
1.6999999999999988,0.5,4.905,0.0,0.0,0.0,0.0,100.0,50.0,0.0,0.0,0.0,-0.0026988303288817406,2.0406639933412407e-08,6.5722553699743e-05,0.0,0.0,0.0,-0.0026988303288817406,2.0406639933412407e-08,6.5722553699743e-05,-0.0026996303349733353,6.032241799402982e-07,1.5758590876657763e-08,0.0,0.0,0.0,0.0,0.0,0.0,0.0,0.0,0.0
1.7166666666666655,0.5,4.905,0.0,0.0,0.0,0.0,100.0,50.0,0.0,0.0,0.0,-0.0026980962138623,6.40972288579178e-08,6.57140335533768e-05,0.0,0.0,0.0,-0.0026980962138623,6.40972288579178e-08,6.57140335533768e-05,-0.0026988964527845383,6.458787993324222e-07,2.3879357158307357e-08,0.0,0.0,0.0,0.0,0.0,0.0,0.0,0.0,0.0
1.733333333333332,0.5,4.905,0.0,0.0,0.0,0.0,100.0,50.0,0.0,0.0,0.0,-0.002697386546060443,1.3066961734864435e-08,6.568569369846955e-05,0.0,0.0,0.0,-0.002697386546060443,1.3066961734864435e-08,6.568569369846955e-05,-0.002698186319321394,5.961260285403114e-07,1.3135919019191533e-08,0.0,0.0,0.0,0.0,0.0,0.0,0.0,0.0,0.0
1.7499999999999987,0.5,4.905,0.0,0.0,0.0,0.0,100.0,50.0,0.0,0.0,0.0,-0.0026967287994921207,1.0946563833158507e-07,6.57126511214301e-05,0.0,0.0,0.0,-0.0026967287994921207,1.0946563833158507e-07,6.57126511214301e-05,-0.002697529038414359,6.917043151588587e-07,5.5848595081897656e-08,0.0,0.0,0.0,0.0,0.0,0.0,0.0,0.0,0.0
1.7666666666666653,0.5,4.905,0.0,0.0,0.0,0.0,100.0,50.0,0.0,0.0,0.0,-0.0026960186660289764,1.017528017399627e-08,6.565400690305978e-05,0.0,0.0,0.0,-0.0026960186660289764,1.017528017399627e-08,6.565400690305978e-05,-0.0026968177407979965,5.929381359237595e-07,1.5391442786949483e-08,0.0,0.0,0.0,0.0,0.0,0.0,0.0,0.0,0.0
1.7833333333333319,0.5,4.905,0.0,0.0,0.0,0.0,100.0,50.0,0.0,0.0,0.0,-0.0026952631305903196,1.8162172210622884e-08,6.562349881278351e-05,0.0,0.0,0.0,-0.0026952631305903196,1.8162172210622884e-08,6.562349881278351e-05,-0.0026960617396980524,6.01302417635452e-07,3.2118467885311475e-09,0.0,0.0,0.0,0.0,0.0,0.0,0.0,0.0,0.0
1.7999999999999985,0.5,4.905,0.0,0.0,0.0,0.0,100.0,50.0,0.0,0.0,0.0,-0.002694516209885478,1.2360031576008623e-07,6.564717477886006e-05,0.0,0.0,0.0,-0.002694516209885478,1.2360031576008623e-07,6.564717477886006e-05,-0.0026953155174851418,7.059470590320416e-07,4.4610970917347004e-08,0.0,0.0,0.0,0.0,0.0,0.0,0.0,0.0,0.0
1.816666666666665,0.5,4.905,0.0,0.0,0.0,0.0,100.0,50.0,0.0,0.0,0.0,-0.002693930407986045,-1.5393544217090493e-09,6.55854819342494e-05,0.0,0.0,0.0,-0.002693930407986045,-1.5393544217090493e-09,6.55854819342494e-05,-0.0026947285514324903,5.805876526210341e-07,-2.392599895983949e-09,0.0,0.0,0.0,0.0,0.0,0.0,0.0,0.0,0.0
1.8333333333333317,0.5,4.905,0.0,0.0,0.0,0.0,100.0,50.0,0.0,0.0,0.0,-0.0026931928005069494,4.481636040054582e-08,6.55835829093121e-05,0.0,0.0,0.0,-0.0026931928005069494,4.481636040054582e-08,6.55835829093121e-05,-0.0026939911767840385,6.264009471124155e-07,1.3075110771865184e-08,0.0,0.0,0.0,0.0,0.0,0.0,0.0,0.0,0.0
1.8499999999999983,0.5,4.905,0.0,0.0,0.0,0.0,100.0,50.0,0.0,0.0,0.0,-0.00269126589410007,-4.1742564462765586e-06,6.936364661669359e-05,0.0,0.0,0.0,-0.00269126589410007,-4.1742564462765586e-06,6.936364661669359e-05,-0.0026921576354652643,-3.593664132495178e-06,3.838501015707152e-06,0.0,0.0,0.0,0.0,0.0,0.0,0.0,0.0,0.0
1.866666666666665,0.5,4.905,0.0,0.0,0.0,0.0,100.0,50.0,0.0,0.0,0.0,-0.002691911766305566,4.371393558244563e-08,6.554876745212823e-05,0.0,0.0,0.0,-0.002691911766305566,4.371393558244563e-08,6.554876745212823e-05,-0.0026927096769213676,6.250995170375973e-07,8.764478920397778e-09,0.0,0.0,0.0,0.0,0.0,0.0,0.0,0.0,0.0
1.8833333333333315,0.5,4.905,0.0,0.0,0.0,0.0,100.0,50.0,0.0,0.0,0.0,-0.0026912845205515623,1.3939720489020146e-08,6.556240259669721e-05,0.0,0.0,0.0,-0.0026912845205515623,1.3939720489020146e-08,6.556240259669721e-05,-0.0026920828968286514,5.956748623248131e-07,3.855848973444154e-08,0.0,0.0,0.0,0.0,0.0,0.0,0.0,0.0,0.0
1.8999999999999981,0.5,4.905,0.0,0.0,0.0,0.0,100.0,50.0,0.0,0.0,0.0,-0.0026905618142336607,2.106480501140595e-08,6.551223486894742e-05,0.0,0.0,0.0,-0.0026905618142336607,2.106480501140595e-08,6.551223486894742e-05,-0.002691359259188175,6.015463895892026e-07,5.0367727766342796e-09,0.0,0.0,0.0,0.0,0.0,0.0,0.0,0.0,0.0
1.9166666666666647,0.5,4.905,0.0,0.0,0.0,0.0,100.0,50.0,0.0,0.0,0.0,-0.002689843066036701,-2.7773896515981278e-09,6.550388934556395e-05,0.0,0.0,0.0,-0.002689843066036701,-2.7773896515981278e-09,6.550388934556395e-05,-0.0026906405109912157,5.790826662632753e-07,1.4754913735259834e-08,0.0,0.0,0.0,0.0,0.0,0.0,0.0,0.0,0.0
1.9333333333333313,0.5,4.905,0.0,0.0,0.0,0.0,100.0,50.0,0.0,0.0,0.0,-0.0026889918372035027,-1.7120760276156943e-07,6.572368874913082e-05,0.0,0.0,0.0,-0.0026889918372035027,-1.7120760276156943e-07,6.572368874913082e-05,-0.002689794870093465,4.0866561334951257e-07,2.549073769841925e-07,0.0,0.0,0.0,0.0,0.0,0.0,0.0,0.0,0.0
1.949999999999998,0.5,4.905,0.0,0.0,0.0,0.0,100.0,50.0,0.0,0.0,0.0,-0.0026883315294981003,3.890546551588159e-08,6.548899546032771e-05,0.0,0.0,0.0,-0.0026883315294981003,3.890546551588159e-08,6.548899546032771e-05,-0.002689128974452615,6.183501568557404e-07,3.6260974667357004e-08,0.0,0.0,0.0,0.0,0.0,0.0,0.0,0.0,0.0
1.9666666666666646,0.5,4.905,0.0,0.0,0.0,0.0,100.0,50.0,0.0,0.0,0.0,-0.0026877475902438164,1.9060109934798675e-08,6.545124779222533e-05,0.0,0.0,0.0,-0.0026877475902438164,1.9060109934798675e-08,6.545124779222533e-05,-0.0026885443367064,5.992736760163098e-07,1.240242930578006e-08,0.0,0.0,0.0,0.0,0.0,0.0,0.0,0.0,0.0
1.9833333333333312,0.5,4.905,0.0,0.0,0.0,0.0,100.0,50.0,0.0,0.0,0.0,-0.002687006490305066,2.1672382999327056e-08,6.542415212607011e-05,0.0,0.0,0.0,-0.002687006490305066,2.1672382999327056e-08,6.542415212607011e-05,-0.0026878027711063623,6.025094307915424e-07,4.620483551320831e-09,0.0,0.0,0.0,0.0,0.0,0.0,0.0,0.0,0.0
1.9999999999999978,0.5,4.905,0.0,0.0,0.0,0.0,100.0,50.0,0.0,0.0,0.0,-0.0026864218525588512,7.967348381043848e-08,6.546496297232807e-05,0.0,0.0,0.0,-0.0026864218525588512,7.967348381043848e-08,6.546496297232807e-05,-0.0026872192975133657,6.607497766708548e-07,5.934769831128506e-08,0.0,0.0,0.0,0.0,0.0,0.0,0.0,0.0,0.0
2.0166666666666644,0.5,4.905,0.0,0.0,0.0,0.0,100.0,50.0,0.0,0.0,0.0,-0.0026858325581997633,4.00324040583655e-08,6.54069081065245e-05,0.0,0.0,0.0,-0.0026858325581997633,4.00324040583655e-08,6.54069081065245e-05,-0.002686628606170416,6.195303967615473e-07,1.5974084277559086e-08,0.0,0.0,0.0,0.0,0.0,0.0,0.0,0.0,0.0
2.033333333333331,0.5,4.905,0.0,0.0,0.0,0.0,100.0,50.0,0.0,0.0,0.0,-0.0026851107832044363,1.369150925967233e-08,6.53830575174652e-05,0.0,0.0,0.0,-0.0026851107832044363,1.369150925967233e-08,6.53830575174652e-05,-0.0026859065983444452,5.945815360064444e-07,1.0082482404527582e-08,0.0,0.0,0.0,0.0,0.0,0.0,0.0,0.0,0.0
2.0499999999999976,0.5,4.905,0.0,0.0,0.0,0.0,100.0,50.0,0.0,0.0,0.0,-0.002684392035007477,3.670685444490118e-08,6.537150329677388e-05,0.0,0.0,0.0,-0.002684392035007477,3.670685444490118e-08,6.537150329677388e-05,-0.0026851878501474857,6.170563437990495e-07,1.6367811994655312e-08,0.0,0.0,0.0,0.0,0.0,0.0,0.0,0.0,0.0
2.066666666666664,0.5,4.905,0.0,0.0,0.0,0.0,100.0,50.0,0.0,0.0,0.0,-0.00268364860676229,3.613555676906799e-08,6.534736166941002e-05,0.0,0.0,0.0,-0.00268364860676229,3.613555676906799e-08,6.534736166941002e-05,-0.0026844439562410116,6.151960860734107e-07,9.482951313088961e-09,0.0,0.0,0.0,0.0,0.0,0.0,0.0,0.0,0.0
2.083333333333331,0.5,4.905,0.0,0.0,0.0,0.0,100.0,50.0,0.0,0.0,0.0,-0.0026829016860574484,5.358141930145166e-09,6.531619874294847e-05,0.0,0.0,0.0,-0.0026829016860574484,5.358141930145166e-09,6.531619874294847e-05,-0.0026836965698748827,5.851442779203353e-07,-2.9945201873715632e-09,0.0,0.0,0.0,0.0,0.0,0.0,0.0,0.0,0.0
2.0999999999999974,0.5,4.905,0.0,0.0,0.0,0.0,100.0,50.0,0.0,0.0,0.0,-0.00268214731477201,2.98210771632057e-08,6.532793486258015e-05,0.0,0.0,0.0,-0.00268214731477201,2.98210771632057e-08,6.532793486258015e-05,-0.0026829426642507315,6.090990041229816e-07,2.7366770183334665e-08,0.0,0.0,0.0,0.0,0.0,0.0,0.0,0.0,0.0
2.116666666666664,0.5,4.905,0.0,0.0,0.0,0.0,100.0,50.0,0.0,0.0,0.0,-0.0026804038789123297,-3.332358346597175e-06,6.848107295809314e-05,0.0,0.0,0.0,-0.0026804038789123297,-3.332358346597175e-06,6.848107295809314e-05,-0.0026812772266566753,-2.753618673523306e-06,3.2220832508755848e-06,0.0,0.0,0.0,0.0,0.0,0.0,0.0,0.0,0.0
2.1333333333333306,0.5,4.905,0.0,0.0,0.0,0.0,100.0,50.0,0.0,0.0,0.0,-0.002680810634046793,6.210932923522705e-08,6.528593803523108e-05,0.0,0.0,0.0,-0.002680810634046793,6.210932923522705e-08,6.528593803523108e-05,-0.0026816055178642273,6.412317929971323e-07,1.6993428886280526e-08,0.0,0.0,0.0,0.0,0.0,0.0,0.0,0.0,0.0
2.1499999999999972,0.5,4.905,0.0,0.0,0.0,0.0,100.0,50.0,0.0,0.0,0.0,-0.0026803521905094385,-4.78154982275214e-09,6.526022480102256e-05,0.0,0.0,0.0,-0.0026803521905094385,-4.78154982275214e-09,6.526022480102256e-05,-0.002681146375834942,5.742714961343154e-07,2.5281963189627277e-09,0.0,0.0,0.0,0.0,0.0,0.0,0.0,0.0,0.0
2.166666666666664,0.5,4.905,0.0,0.0,0.0,0.0,100.0,50.0,0.0,0.0,0.0,-0.002679380588233471,-8.028468414522649e-07,6.597470928682014e-05,0.0,0.0,0.0,-0.002679380588233471,-8.028468414522649e-07,6.597470928682014e-05,-0.0026801929343491793,-2.2414333500364592e-07,7.405021733575268e-07,0.0,0.0,0.0,0.0,0.0,0.0,0.0,0.0,0.0
2.1833333333333305,0.5,4.905,0.0,0.0,0.0,0.0,100.0,50.0,0.0,0.0,0.0,-0.002678923076018691,2.9385370581280768e-08,6.523358752019703e-05,0.0,0.0,0.0,-0.002678923076018691,2.9385370581280768e-08,6.523358752019703e-05,-0.0026797170285135508,6.082752861402696e-07,1.0522398952161893e-08,0.0,0.0,0.0,0.0,0.0,0.0,0.0,0.0,0.0
2.199999999999997,0.5,4.905,0.0,0.0,0.0,0.0,100.0,50.0,0.0,0.0,0.0,-0.0026782082859426737,1.2979117336442414e-08,6.521029717987403e-05,0.0,0.0,0.0,-0.0026782082859426737,1.2979117336442414e-08,6.521029717987403e-05,-0.0026790020056068897,5.914617418056878e-07,4.983958135085231e-09,0.0,0.0,0.0,0.0,0.0,0.0,0.0,0.0,0.0
2.2166666666666637,0.5,4.905,0.0,0.0,0.0,0.0,100.0,50.0,0.0,0.0,0.0,-0.002676968229934573,-1.5431636484208866e-06,6.662988744210452e-05,0.0,0.0,0.0,-0.002676968229934573,-1.5431636484208866e-06,6.662988744210452e-05,-0.0026777973398566246,-9.65286631071649e-07,1.454044081583561e-06,0.0,0.0,0.0,0.0,0.0,0.0,0.0,0.0,0.0
2.2333333333333303,0.5,4.905,0.0,0.0,0.0,0.0,100.0,50.0,0.0,0.0,0.0,-0.0026767118833959103,4.914201312544719e-08,6.51771915727295e-05,0.0,0.0,0.0,-0.0026767118833959103,4.914201312544719e-08,6.51771915727295e-05,-0.002677505137398839,6.276502517721383e-07,7.915829769444827e-09,0.0,0.0,0.0,0.0,0.0,0.0,0.0,0.0,0.0
2.249999999999997,0.5,4.905,0.0,0.0,0.0,0.0,100.0,50.0,0.0,0.0,0.0,-0.0026759710162878036,1.437980934326788e-08,6.516911525977775e-05,0.0,0.0,0.0,-0.0026759710162878036,1.437980934326788e-08,6.516911525977775e-05,-0.002676764503121376,5.924976562710071e-07,1.8147005675928085e-08,0.0,0.0,0.0,0.0,0.0,0.0,0.0,0.0,0.0
2.2666666666666635,0.5,4.905,0.0,0.0,0.0,0.0,100.0,50.0,0.0,0.0,0.0,-0.0026753589045256376,5.1030884407055055e-08,6.514593405881897e-05,0.0,0.0,0.0,-0.0026753589045256376,5.1030884407055055e-08,6.514593405881897e-05,-0.0026761519256979227,6.285346785261936e-07,9.690888091995475e-09,0.0,0.0,0.0,0.0,0.0,0.0,0.0,0.0,0.0
2.28333333333333,0.5,4.905,0.0,0.0,0.0,0.0,100.0,50.0,0.0,0.0,0.0,-0.0026747225783765316,7.525737544256117e-08,6.514621782116592e-05,0.0,0.0,0.0,-0.0026747225783765316,7.525737544256117e-08,6.514621782116592e-05,-0.0026755155995488167,6.53470692668634e-07,2.552224565022243e-08,0.0,0.0,0.0,0.0,0.0,0.0,0.0,0.0,0.0
2.2999999999999967,0.5,4.905,0.0,0.0,0.0,0.0,100.0,50.0,0.0,0.0,0.0,-0.0026741381734609604,7.140548774486888e-08,6.517521251225844e-05,0.0,0.0,0.0,-0.0026741381734609604,7.140548774486888e-08,6.517521251225844e-05,-0.00267493212595582,6.49138598873833e-07,6.869539248555157e-08,0.0,0.0,0.0,0.0,0.0,0.0,0.0,0.0,0.0
2.3166666666666633,0.5,4.905,0.0,0.0,0.0,0.0,100.0,50.0,0.0,0.0,0.0,-0.002673466457054019,3.760695932442104e-08,6.51403097435832e-05,0.0,0.0,0.0,-0.002673466457054019,3.760695932442104e-08,6.51403097435832e-05,-0.0026742599438875914,6.1507387272286e-07,5.0288889497096534e-08,0.0,0.0,0.0,0.0,0.0,0.0,0.0,0.0,0.0
2.33333333333333,0.5,4.905,0.0,0.0,0.0,0.0,100.0,50.0,0.0,0.0,0.0,-0.0026727523654699326,4.3661312787435236e-08,6.508643127745017e-05,0.0,0.0,0.0,-0.0026727523654699326,4.3661312787435236e-08,6.508643127745017e-05,-0.0026735446881502867,6.215894359229424e-07,1.3530881304291142e-08,0.0,0.0,0.0,0.0,0.0,0.0,0.0,0.0,0.0
2.3499999999999965,0.5,4.905,0.0,0.0,0.0,0.0,100.0,50.0,0.0,0.0,0.0,-0.0026720270980149508,5.6791527924815455e-08,6.507505167974159e-05,0.0,0.0,0.0,-0.0026720270980149508,5.6791527924815455e-08,6.507505167974159e-05,-0.002672819420695305,6.343002496578265e-07,1.99504750497681e-08,0.0,0.0,0.0,0.0,0.0,0.0,0.0,0.0,0.0
2.366666666666663,0.5,4.905,0.0,0.0,0.0,0.0,100.0,50.0,0.0,0.0,0.0,-0.002671269467100501,8.30970705578693e-08,6.50595102342777e-05,0.0,0.0,0.0,-0.002671269467100501,8.30970705578693e-08,6.50595102342777e-05,-0.0026720615569502115,6.598237973776122e-07,2.2944171007566183e-08,0.0,0.0,0.0,0.0,0.0,0.0,0.0,0.0,0.0
2.3833333333333298,0.5,4.905,0.0,0.0,0.0,0.0,100.0,50.0,0.0,0.0,0.0,-0.00266997329890728,-1.7606861320018652e-06,6.659187783952802e-05,0.0,0.0,0.0,-0.00266997329890728,-1.7606861320018652e-06,6.659187783952802e-05,-0.0026708035729825497,-1.1844553000628366e-06,1.5868286027398426e-06,0.0,0.0,0.0,0.0,0.0,0.0,0.0,0.0,0.0
2.3999999999999964,0.5,4.905,0.0,0.0,0.0,0.0,100.0,50.0,0.0,0.0,0.0,-0.002669751411303878,7.985749306271828e-08,6.501747702714056e-05,0.0,0.0,0.0,-0.002669751411303878,7.985749306271828e-08,6.501747702714056e-05,-0.002670543035492301,6.568100729964499e-07,1.8683421032505976e-08,0.0,0.0,0.0,0.0,0.0,0.0,0.0,0.0,0.0
2.416666666666663,0.5,4.905,0.0,0.0,0.0,0.0,100.0,50.0,0.0,0.0,0.0,-0.002669268287718296,3.04897405101201e-08,6.501000461867079e-05,0.0,0.0,0.0,-0.002669268287718296,3.04897405101201e-08,6.501000461867079e-05,-0.0026700596790760756,6.076483032302349e-07,2.213681149498825e-08,0.0,0.0,0.0,0.0,0.0,0.0,0.0,0.0,0.0
2.4333333333333296,0.5,4.905,0.0,0.0,0.0,0.0,100.0,50.0,0.0,0.0,0.0,-0.0026685367338359356,2.4880188576048567e-08,6.497953290818259e-05,0.0,0.0,0.0,-0.0026685367338359356,2.4880188576048567e-08,6.497953290818259e-05,-0.002669327659532428,6.015694111738412e-07,9.673572165525002e-09,0.0,0.0,0.0,0.0,0.0,0.0,0.0,0.0,0.0
2.449999999999996,0.5,4.905,0.0,0.0,0.0,0.0,100.0,50.0,0.0,0.0,0.0,-0.002667271299287677,-2.1356761408242164e-06,6.691944145131856e-05,0.0,0.0,0.0,-0.002667271299287677,-2.1356761408242164e-06,6.691944145131856e-05,-0.0026681104209274054,-1.5597069022987853e-06,1.9796748347289395e-06,0.0,0.0,0.0,0.0,0.0,0.0,0.0,0.0,0.0
2.466666666666663,0.5,4.905,0.0,0.0,0.0,0.0,100.0,50.0,0.0,0.0,0.0,-0.0026651588268578053,-6.521250270452583e-06,7.085284596541896e-05,0.0,0.0,0.0,-0.0026651588268578053,-6.521250270452583e-06,7.085284596541896e-05,-0.002666095271706581,-5.946149940427858e-06,5.963285275356611e-06,0.0,0.0,0.0,0.0,0.0,0.0,0.0,0.0,0.0
2.4833333333333294,0.5,4.905,0.0,0.0,0.0,0.0,100.0,50.0,0.0,0.0,0.0,-0.0026665632613003254,3.827245720344763e-08,6.494320405181497e-05,0.0,0.0,0.0,-0.0026665632613003254,3.827245720344763e-08,6.494320405181497e-05,-0.002667353954166174,6.143438326944306e-07,2.1293153906754014e-08,0.0,0.0,0.0,0.0,0.0,0.0,0.0,0.0,0.0
2.499999999999996,0.5,4.905,0.0,0.0,0.0,0.0,100.0,50.0,0.0,0.0,0.0,-0.002665824955329299,1.4875280562876014e-08,6.490665691671893e-05,0.0,0.0,0.0,-0.002665824955329299,1.4875280562876014e-08,6.490665691671893e-05,-0.0026666149497032166,5.915986207583046e-07,2.9965487868821583e-09,0.0,0.0,0.0,0.0,0.0,0.0,0.0,0.0,0.0
2.5166666666666626,0.5,4.905,0.0,0.0,0.0,0.0,100.0,50.0,0.0,0.0,0.0,-0.002664534142240882,-1.738666696837754e-06,6.64440740365535e-05,0.0,0.0,0.0,-0.002664534142240882,-1.738666696837754e-06,6.64440740365535e-05,-0.0026653623208403587,-1.1629510936472798e-06,1.5706991689512506e-06,0.0,0.0,0.0,0.0,0.0,0.0,0.0,0.0,0.0
2.533333333333329,0.5,4.905,0.0,0.0,0.0,0.0,100.0,50.0,0.0,0.0,0.0,-0.0026643224991858006,5.224121579772145e-08,6.490519444923848e-05,0.0,0.0,0.0,-0.0026643224991858006,5.224121579772145e-08,6.490519444923848e-05,-0.0026651129592210054,6.273635335674044e-07,3.7631707527907565e-08,0.0,0.0,0.0,0.0,0.0,0.0,0.0,0.0,0.0
2.549999999999996,0.5,4.905,0.0,0.0,0.0,0.0,100.0,50.0,0.0,0.0,0.0,-0.0026636577676981688,5.1047557292349666e-08,6.48650893708691e-05,0.0,0.0,0.0,-0.0026636577676981688,5.1047557292349666e-08,6.48650893708691e-05,-0.0026644475292414427,6.253828246371995e-07,1.3504214635418066e-08,0.0,0.0,0.0,0.0,0.0,0.0,0.0,0.0,0.0
2.5666666666666624,0.5,4.905,0.0,0.0,0.0,0.0,100.0,50.0,0.0,0.0,0.0,-0.0026627532206475735,-9.898207053993247e-07,6.573131395271048e-05,0.0,0.0,0.0,-0.0026627532206475735,-9.898207053993247e-07,6.573131395271048e-05,-0.0026635644026100636,-4.149128187691531e-07,9.024529958878702e-07,0.0,0.0,0.0,0.0,0.0,0.0,0.0,0.0,0.0
2.583333333333329,0.5,4.905,0.0,0.0,0.0,0.0,100.0,50.0,0.0,0.0,0.0,-0.002661920851096511,-1.1978421525782323e-06,6.602528446819633e-05,0.0,0.0,0.0,-0.002661920851096511,-1.1978421525782323e-06,6.602528446819633e-05,-0.002662739483639598,-6.231678639778693e-07,1.2163757219241234e-06,0.0,0.0,0.0,0.0,0.0,0.0,0.0,0.0,0.0
2.5999999999999956,0.5,4.905,0.0,0.0,0.0,0.0,100.0,50.0,0.0,0.0,0.0,-0.00266180164180696,7.310062000165374e-10,6.481499440269545e-05,0.0,0.0,0.0,-0.00266180164180696,7.310062000165374e-10,6.481499440269545e-05,-0.002662590704858303,5.754573635385896e-07,9.426861069528059e-09,0.0,0.0,0.0,0.0,0.0,0.0,0.0,0.0,0.0
2.6166666666666623,0.5,4.905,0.0,0.0,0.0,0.0,100.0,50.0,0.0,0.0,0.0,-0.0026606270112097263,-1.1638808246061672e-06,6.602513167308643e-05,0.0,0.0,0.0,-0.0026606270112097263,-1.1638808246061672e-06,6.602513167308643e-05,-0.0026614461094141006,-5.902143129787873e-07,1.2483410500863101e-06,0.0,0.0,0.0,0.0,0.0,0.0,0.0,0.0,0.0
2.633333333333329,0.5,4.905,0.0,0.0,0.0,0.0,100.0,50.0,0.0,0.0,0.0,-0.0026603571604937315,2.51842156018256e-08,6.477496208390221e-05,0.0,0.0,0.0,-0.0026603571604937315,2.51842156018256e-08,6.477496208390221e-05,-0.0026611455250531435,5.990451086290705e-07,4.768986983094692e-09,0.0,0.0,0.0,0.0,0.0,0.0,0.0,0.0,0.0
2.6499999999999955,0.5,4.905,0.0,0.0,0.0,0.0,100.0,50.0,0.0,0.0,0.0,-0.0026596386451274157,1.964419382716187e-08,6.478806608356535e-05,0.0,0.0,0.0,-0.0026596386451274157,1.964419382716187e-08,6.478806608356535e-05,-0.0026604277081787586,5.941555514255015e-07,3.4962091888246505e-08,0.0,0.0,0.0,0.0,0.0,0.0,0.0,0.0,0.0
2.666666666666662,0.5,4.905,0.0,0.0,0.0,0.0,100.0,50.0,0.0,0.0,0.0,-0.0026588954497128725,5.552858084456602e-08,6.4803687564563e-05,0.0,0.0,0.0,-0.0026588954497128725,5.552858084456602e-08,6.4803687564563e-05,-0.0026596849784255028,6.280940283431846e-07,6.853089473679574e-08,0.0,0.0,0.0,0.0,0.0,0.0,0.0,0.0,0.0
2.6833333333333287,0.5,4.905,0.0,0.0,0.0,0.0,100.0,50.0,0.0,0.0,0.0,-0.002657982287928462,-6.490306532214163e-07,6.536446016980335e-05,0.0,0.0,0.0,-0.002657982287928462,-6.490306532214163e-07,6.536446016980335e-05,-0.002658786019310355,-7.676096913655783e-08,6.513254220408271e-07,0.0,0.0,0.0,0.0,0.0,0.0,0.0,0.0,0.0
2.6999999999999953,0.5,4.905,0.0,0.0,0.0,0.0,100.0,50.0,0.0,0.0,0.0,-0.0026563331484794617,-3.6089402328798315e-06,6.797576497774571e-05,0.0,0.0,0.0,-0.0026563331484794617,-3.6089402328798315e-06,6.797576497774571e-05,-0.002657201373949647,-3.0378596420632675e-06,3.3013725442287978e-06,0.0,0.0,0.0,0.0,0.0,0.0,0.0,0.0,0.0
2.716666666666662,0.5,4.905,0.0,0.0,0.0,0.0,100.0,50.0,0.0,0.0,0.0,-0.0026568907778710127,4.430365763141708e-08,6.469935033237562e-05,0.0,0.0,0.0,-0.0026568907778710127,4.430365763141708e-08,6.469935033237562e-05,-0.0026576784439384937,6.163065222608566e-07,1.2020180406580039e-08,0.0,0.0,0.0,0.0,0.0,0.0,0.0,0.0,0.0
2.7333333333333285,0.5,4.905,0.0,0.0,0.0,0.0,100.0,50.0,0.0,0.0,0.0,-0.002656142693012953,1.1076782868713053e-07,6.474927067756653e-05,0.0,0.0,0.0,-0.002656142693012953,1.1076782868713053e-07,6.474927067756653e-05,-0.0026569317560642958,6.835389285697602e-07,8.160328235362613e-08,0.0,0.0,0.0,0.0,0.0,0.0,0.0,0.0,0.0
2.749999999999995,0.5,4.905,0.0,0.0,0.0,0.0,100.0,50.0,0.0,0.0,0.0,-0.0026556109078228474,1.1475303374197665e-08,6.4665378886275e-05,0.0,0.0,0.0,-0.0026556109078228474,1.1475303374197665e-08,6.4665378886275e-05,-0.002656398108229041,5.838278411829378e-07,1.0958974172581293e-08,0.0,0.0,0.0,0.0,0.0,0.0,0.0,0.0,0.0
2.7666666666666617,0.5,4.905,0.0,0.0,0.0,0.0,100.0,50.0,0.0,0.0,0.0,-0.0026548828464001417,1.1464589277920822e-07,6.466815830208361e-05,0.0,0.0,0.0,-0.0026548828464001417,1.1464589277920822e-07,6.466815830208361e-05,-0.002655670279636979,6.863335784146329e-07,3.098758583064409e-08,0.0,0.0,0.0,0.0,0.0,0.0,0.0,0.0,0.0
2.7833333333333283,0.5,4.905,0.0,0.0,0.0,0.0,100.0,50.0,0.0,0.0,0.0,-0.002654165728017688,6.702941846015165e-08,6.463595491368324e-05,0.0,0.0,0.0,-0.002654165728017688,6.702941846015165e-08,6.463595491368324e-05,-0.002654952695593238,6.388960400727228e-07,1.565760143762418e-08,0.0,0.0,0.0,0.0,0.0,0.0,0.0,0.0,0.0
2.799999999999995,0.5,4.905,0.0,0.0,0.0,0.0,100.0,50.0,0.0,0.0,0.0,-0.0026534278877079487,1.0191928367930814e-07,6.464463513111696e-05,0.0,0.0,0.0,-0.0026534278877079487,1.0191928367930814e-07,6.464463513111696e-05,-0.002654215320944786,6.736709678989428e-07,4.304083489614641e-08,0.0,0.0,0.0,0.0,0.0,0.0,0.0,0.0,0.0
2.8166666666666615,0.5,4.905,0.0,0.0,0.0,0.0,100.0,50.0,0.0,0.0,0.0,-0.0026527580339461565,1.2284193928735476e-07,6.46322441753e-05,0.0,0.0,0.0,-0.0026527580339461565,1.2284193928735476e-07,6.46322441753e-05,-0.0026535452343523502,6.956088896004076e-07,4.7128757785230846e-08,0.0,0.0,0.0,0.0,0.0,0.0,0.0,0.0,0.0
2.833333333333328,0.5,4.905,0.0,0.0,0.0,0.0,100.0,50.0,0.0,0.0,0.0,-0.002652042778208852,1.267022327056111e-07,6.461106386268511e-05,0.0,0.0,0.0,-0.002652042778208852,1.267022327056111e-07,6.461106386268511e-05,-0.0026528295129537582,6.979736895118549e-07,4.2716969517186953e-08,0.0,0.0,0.0,0.0,0.0,0.0,0.0,0.0,0.0
2.8499999999999948,0.5,4.905,0.0,0.0,0.0,0.0,100.0,50.0,0.0,0.0,0.0,-0.002651277696713805,1.2571962315632845e-07,6.460553413489833e-05,0.0,0.0,0.0,-0.002651277696713805,1.2571962315632845e-07,6.460553413489833e-05,-0.0026520646642893553,6.972941264393739e-07,5.536281122431319e-08,0.0,0.0,0.0,0.0,0.0,0.0,0.0,0.0,0.0
2.8666666666666614,0.5,4.905,0.0,0.0,0.0,0.0,100.0,50.0,0.0,0.0,0.0,-0.002650710055604577,5.737375019521096e-08,6.459480209741741e-05,0.0,0.0,0.0,-0.002650710055604577,5.737375019521096e-08,6.459480209741741e-05,-0.0026514967903494835,6.293174692473258e-07,5.9210599090420146e-08,0.0,0.0,0.0,0.0,0.0,0.0,0.0,0.0,0.0
2.883333333333328,0.5,4.905,0.0,0.0,0.0,0.0,100.0,50.0,0.0,0.0,0.0,-0.002649981528520584,3.047513175147287e-08,6.452086381614208e-05,0.0,0.0,0.0,-0.002649981528520584,3.047513175147287e-08,6.452086381614208e-05,-0.0026507668662816286,6.014208224769391e-07,2.663941955916016e-09,0.0,0.0,0.0,0.0,0.0,0.0,0.0,0.0,0.0
2.8999999999999946,0.5,4.905,0.0,0.0,0.0,0.0,100.0,50.0,0.0,0.0,0.0,-0.0026494148187339306,1.182869358018479e-08,6.452501838793978e-05,0.0,0.0,0.0,-0.0026494148187339306,1.182869358018479e-08,6.452501838793978e-05,-0.0026502003893256187,5.838949732606125e-07,2.0811743439708152e-08,0.0,0.0,0.0,0.0,0.0,0.0,0.0,0.0,0.0
2.916666666666661,0.5,4.905,0.0,0.0,0.0,0.0,100.0,50.0,0.0,0.0,0.0,-0.002648188965395093,-1.5232578789436957e-06,6.596490857191384e-05,0.0,0.0,0.0,-0.002648188965395093,-1.5232578789436957e-06,6.596490857191384e-05,-0.00264901015907526,-9.515890724287601e-07,1.4898128029017244e-06,0.0,0.0,0.0,0.0,0.0,0.0,0.0,0.0,0.0
2.933333333333328,0.5,4.905,0.0,0.0,0.0,0.0,100.0,50.0,0.0,0.0,0.0,-0.0026468285359442234,-3.625784984251368e-06,6.77397329127416e-05,0.0,0.0,0.0,-0.0026468285359442234,-3.625784984251368e-06,6.77397329127416e-05,-0.002647693967446685,-3.054225317100645e-06,3.2971181553875795e-06,0.0,0.0,0.0,0.0,0.0,0.0,0.0,0.0,0.0
2.9499999999999944,0.5,4.905,0.0,0.0,0.0,0.0,100.0,50.0,0.0,0.0,0.0,-0.0026464739348739386,-2.5924891815520823e-06,6.684845720883459e-05,0.0,0.0,0.0,-0.0026464739348739386,-2.5924891815520823e-06,6.684845720883459e-05,-0.0026473174802958965,-2.022442004090408e-06,2.4148068860085914e-06,0.0,0.0,0.0,0.0,0.0,0.0,0.0,0.0,0.0
2.966666666666661,0.5,4.905,0.0,0.0,0.0,0.0,100.0,50.0,0.0,0.0,0.0,-0.002646596170961857,2.7494280629980494e-08,6.445205508498475e-05,0.0,0.0,0.0,-0.002646596170961857,2.7494280629980494e-08,6.445205508498475e-05,-0.0026473808102309704,5.985086204418621e-07,1.5658173424526467e-08,0.0,0.0,0.0,0.0,0.0,0.0,0.0,0.0,0.0
2.9833333333333276,0.5,4.905,0.0,0.0,0.0,0.0,100.0,50.0,0.0,0.0,0.0,-0.002645851345732808,3.290132966071724e-08,6.442856829380617e-05,0.0,0.0,0.0,-0.002645851345732808,3.290132966071724e-08,6.442856829380617e-05,-0.0026466355193406343,6.036590889380022e-07,1.033057017707506e-08,0.0,0.0,0.0,0.0,0.0,0.0,0.0,0.0,0.0
2.9999999999999942,0.5,4.905,0.0,0.0,0.0,0.0,100.0,50.0,0.0,0.0,0.0,-0.0026451030280441046,3.933599046490599e-08,6.443991151172668e-05,0.0,0.0,0.0,-0.0026451030280441046,3.933599046490599e-08,6.443991151172668e-05,-0.002645887667313218,6.110227559474879e-07,4.1205602485661075e-08,0.0,0.0,0.0,0.0,0.0,0.0,0.0,0.0,0.0
3.016666666666661,0.5,4.905,0.0,0.0,0.0,0.0,100.0,50.0,0.0,0.0,0.0,-0.002644510939717293,3.146882932014705e-08,6.439712888095528e-05,0.0,0.0,0.0,-0.002644510939717293,3.146882932014705e-08,6.439712888095528e-05,-0.0026452948804944754,6.0223311493246e-07,1.1421507295494848e-08,0.0,0.0,0.0,0.0,0.0,0.0,0.0,0.0,0.0
3.0333333333333274,0.5,4.905,0.0,0.0,0.0,0.0,100.0,50.0,0.0,0.0,0.0,-0.002643679268658161,-2.7517145895217254e-07,6.471451342804357e-05,0.0,0.0,0.0,-0.002643679268658161,-2.7517145895217254e-07,6.471451342804357e-05,-0.002644471125677228,2.9633201847900636e-07,3.4994135944543814e-07,0.0,0.0,0.0,0.0,0.0,0.0,0.0,0.0,0.0
